[{"id":1,"name":"첫마을 (한솔동)","studies":[1,2,14,20,21,29],"lat":36.4783787381492,"lng":127.253694534301},
{"id":2,"name":"아름동","studies":[1,4,5,7,8,9,11,16,18,19,20,21,26,29,30,35],"lat":36.5166035307558,"lng":127.240476608276},
{"id":3,"name":"고운동","studies":[1,3,11,16],"lat":36.5185694583015,"lng":127.234854698181},
{"id":4,"name":"호수공원","studies":[1,2,8,12,13,22,25,31,34],"lat":36.4984594564833,"lng":127.273349761962},
{"id":5,"name":"도담동","studies":[3,4,9,14,16,18,33],"lat":36.5144995880566,"lng":127.259917259216},
{"id":6,"name":"어진동","studies":[4,5,8,33],"lat":36.501322777402,"lng":127.263007164001},
{"id":7,"name":"종촌동","studies":[9,15,18,21,30,25],"lat":36.5038065362898,"lng":127.24669933319},
{"id":8,"name":"정부청사","studies":[2],"lat":36.5016332516205,"lng":127.265238761901},
{"id":9,"name":"국립세종도서관","studies":[6,13,25],"lat":36.4988303142578,"lng":127.268339395523},
{"id":10,"name":"중앙공원 부지","studies":[32,35],"lat":36.4950785316161,"lng":127.278971672058},
{"id":11,"name":"세종과학예술영재학교","studies":[],"lat": 36.52247529772341,"lng": 127.248694896698},
{"id":12,"name":"5-1생활권","studies":[24],"lat":36.5250877027846,"lng":127.330770492553},
{"id":13,"name":"방축전","studies":[12],"lat":36.4994722,"lng":127.2549484},
{"id":14,"name":"4생활권","studies":[23],"lat":36.4912834401276,"lng":127.3140335083},
{"id":15,"name":"우람뜰 근린공원","studies":[27],"lat":36.5149910879879,"lng":127.253812551498},
{"id":16,"name":"대평동 근린공원","studies":[10],"lat":36.473763232698,"lng":127.269079685211},
{"id":17,"name":"세종시청","studies":[13,22],"lat":36.4798280364196,"lng":127.288434505462}]
